place,population,latitude,longitude
旭川市,333294,43.7706,142.3649
札幌市北区,287576,43.1155,141.3402
札幌市東区,260414,43.0797,141.3534
函館市,261231,41.7687,140.7288
札幌市中央区,255313,43.0555,141.34
札幌市豊平区,213790,43.0306,141.3664
